Clock:Tick#,Clock:offsetTime,IMU_ATTI(0):Longitude,IMU_ATTI(0):Latitude,IMU_ATTI(0):press:D,IMU_ATTI(0):alti:D,IMU_ATTI(0):relativeHeight:C,IMU_ATTI(0):absoluteHeight:C,IMU_ATTI(0):numSats,IMU_ATTI(0):roll:C,IMU_ATTI(0):pitch:C,IMU_ATTI(0):yaw:C,IMU_ATTI(0):accelX,IMU_ATTI(0):accelY,IMU_ATTI(0):accelZ,IMU_ATTI(0):accelComposite:C,IMU_ATTI(0):gyroX,IMU_ATTI(0):gyroY,IMU_ATTI(0):gyroZ,IMU_ATTI(0):gyroComposite:C,IMU_ATTI(0):velN,IMU_ATTI(0):velE,IMU_ATTI(0):velD,IMU_ATTI(0):velComposite:C,IMU_ATTI(0):velH:C,IMU_ATTI(0):magX,IMU_ATTI(0):magY,IMU_ATTI(0):magZ,IMU_ATTI(0):magMod:C,IMU_ATTI(0):temperature,IMU_ATTI(0):yawUnWrapped:C,IMU_ATTI(0):tiltInclination:C,IMU_ATTI(0):tiltDirectionEarthFrame:C,IMU_ATTI(0):tiltDirectionBodyFrame:C,IMU_ATTI(0):yaw360:C,IMU_ATTI(0):magYaw:C,IMU_ATTI(0):Yaw-magYaw:C,IMUCalcs(0):PosN:C,IMUCalcs(0):PosE:C,IMUCalcs(0):PosD:C,IMUCalcs(0):height:C,IMUCalcs(0):velN:C,IMUCalcs(0):velE:C,IMUCalcs(0):velD:C,IMUCalcs(0):diffVelN:C,IMUCalcs(0):diffVelE:C,IMUCalcs(0):diffVelD:C,IMUCalcs(0):Lat:C,IMUCalcs(0):Long:C,IMUCalcs(0):VelocityError:C,IMUCalcs(0):PositionError:C,IMUCalcs(0):totalGyroZ:C,IMUCalcs(0):totalGyroX:C,IMUCalcs(0):totalGyroY:C,IMU_ATTI(0):distanceHP:C,IMU_ATTI(0):distanceTravelled:C,IMU_ATTI(0):directionOfTravel[mag]:C,IMU_ATTI(0):directionOfTravel[true]:C,IMU_ATTI(0):quatW:D,IMU_ATTI(0):quatX:D,IMU_ATTI(0):quatY:D,IMU_ATTI(0):quatZ:D,IMU_ATTI(0):agX:D,IMU_ATTI(0):agY:D,IMU_ATTI(0):agZ:D,IMU_ATTI(0):gbX:D,IMU_ATTI(0):gbY:D,IMU_ATTI(0):gbZ:D,IMU_ATTI(0):ty:D,IMU_ATTI(0):tz:D,IMU_ATTI(0):sensor_stat:D,IMU_ATTI(0):filter_stat:D,IMU_ATTI(0):atti_cnt:D,GPS:Long,GPS:Lat,GPS:Date,GPS:Time,GPS:dateTimeStamp,GPS:heightMSL,GPS:hDOP,GPS:pDOP,GPS:sAcc,GPS:numGPS,GPS:numGLNAS,GPS:numSV,GPS:velN,GPS:velE,GPS:velD,GPS:rawDate,GPS:rawTime,Mr_controller:ctrl_tick:D,Mr_controller:ctrl_pitch:D,Mr_controller:ctrl_roll:D,Mr_controller:ctrl_yaw:D,Mr_controller:ctrl_throttle:D,Controller:ctrl_mode:C,Mr_controller:mode_switch:D,Mr_controller:motor_state:D,Mr_controller:sig_level:D,Mr_controller:ctrl_level:D,Mr_controller:in_sim_mode:D,Mr_controller:max_height:D,Mr_controller:max_radius:D,Mr_controller:cur_plan_req:D,Mr_controller:cur_plan:D,Mr_controller:cur_mis_type:D,Mr_controller:cur_mis_req:D,Mr_controller:is_soaring_up:D,Mr_controller:CL_tors:D,Mr_controller:D2H_x:D,Mr_controller:D2H_y:D,Mr_controller:D2H_type:D,Mr_controller:temp_level:D,Mr_controller:throw_fly_inairT:D,Mr_controller:in_wifi:D,Mr_controller:height_level:D,RC_Info:failSafe,RC_Info:dataLost,RC_Info:appLost,RC_Info:sigStrength:C,RC_Info:cur_cmd:D,RC_Info:video_lost,RC_Info:frame_lost,RC_Info:sky_con,RC_Info:gnd_con,RC_Info:connected,RC_Info:m_changed:D,RC_Info:arm_status:D,RC_Info:A:D,RC_Info:E:D,RC_Info:T:D,RC_Info:R:D,RC_Info:U:D,RC_Info:lat:D,RC_Info:lon:D,RC_Info:gps_state:D,RC_Info:pro_rc_enable_flag:D,RC_Info:pro_rc_tilt_perc:D,RC_Info:pro_rc_vert_perc:D,RC_Info:pro_rc_tors_perc:D,MagCali(0):X:D,MagCali(0):Y:D,MagCali(0):Z:D,MagCali(0):Mod:C,MagCali(0):magYaw:C,MagCali(1):X:D,MagCali(1):Y:D,MagCali(1):Z:D,MagCali(1):Mod:C,MagCali(1):magYaw:C,CompassFilter(0):X:D,CompassFilter(0):Y:D,CompassFilter(0):Z:D,CompassFilter(1):X:D,CompassFilter(1):Y:D,CompassFilter(1):Z:D,OA:avoidObst,OA:emergBrake,OA:radiusLimit,OA:airportLimit,OA:groundForceLanding,OA:horizNearBoundary,OA:vertLowLimit,OA:vertAirportLimit,OA:roofLimit,OA:hitGroundLimit,OA:frontDistance,MVO:velX,MVO:velY,MVO:velZ,MVO:posX,MVO:posY,MVO:posZ,MVO:hoverPointUncertainty1,MVO:hoverPointUncertainty2,MVO:hoverPointUncertainty3,MVO:hoverPointUncertainty4,MVO:hoverPointUncertainty5,MVO:hoverPointUncertainty6,MVO:velocityUncertainty1,MVO:velocityUncertainty2,MVO:velocityUncertainty3,MVO:velocityUncertainty4,MVO:velocityUncertainty5,MVO:velocityUncertainty6,MVO:height,MVO:heightUncertainty,AirSpeed:comp_alti:D,AirSpeed:wind_spd:D,AirSpeed:vel_level:D,eventLog,osd_data:flyCState,osd_data:flycCommand,osd_data:flightAction,osd_data:nonGPSCause,osd_data:compassError,osd_data:connectedToRC,osd_data:lowVoltage,osd_data:ModeSwitch,osd_data:gpsUsed,osd_data:visionUsed,osd_data:notEnoughForce,osd_data:flightTime,osd_data:navHealth,osd_data:vpsHeight,osd_data:relativeHeight,usonic:usonic_h,CtrlAllocation:raw_tilt_x,CtrlAllocation:raw_tilt_y,CtrlAllocation:raw_tors,CtrlAllocation:raw_lift,CtrlAllocation:fix_tilt_x,CtrlAllocation:fix_tilt_y,CtrlAllocation:fix_tor,CtrlAllocation:fix_lift,CtrlAllocation:bound_max,CtrlAllocation:bound_min,CtrlAllocation:tors_limit_scale,CtrlAllocation:tilt_scale,CtrlAllocation:lift_diff:C,MotorCtrl:Status,MotorCtrl:PWM:RFront,MotorCtrl:PWM:LFront,MotorCtrl:PWM:LBack,MotorCtrl:PWM:RBack,ATTI_MINI0:s_qw0,ATTI_MINI0:s_qx0,ATTI_MINI0:s_qy0,ATTI_MINI0:s_qz0,ATTI_MINI0:roll:C,ATTI_MINI0:pitch:C,ATTI_MINI0:yaw:C,ATTI_MINI0:s_pgz0,ATTI_MINI0:s_vgz0,ATTI_MINI0:s_agz0,ATTI_MINI0:s_rsv00,ATTI_MINI0:s_rsv10,ATTI_MINI0:s_cnt0,CtrlVelVert:vel_cmd,CtrlVelVert:vel_before,CtrlVelVert:vel_after,CtrlVelVert:vel_fdbk,CtrlVelVert:vel_tag,CtrlVelVert:vel_diff,Attribute|Value,ConvertDatV3,4.3.0
700737254,100.86,113.9589736,22.54265526,104.5243,104.5243,4.424301622,,15,-1.852681617,-5.438656517,-0.046835459,0.002329566,-0.001076442,-1.0063525,1.0063559,-0.29347956,-0.37095615,-1.5133799,1.585578,-0.3836479,0.12291222,0.003515154,0.40287152,0.402856186,1493,1,-142,1499,0.55,-0.046835459,5.741983759,-18.81178593,-18.76495047,359.9531645,0.137203511,0.18403897,-18.29140519,7.662930509,-4.61041518,4.61041518,-0.534734611,0.200615167,0.01050452,-0.151086722,0.077702947,0.006989366,22.5426485,113.9589766,FALSE,FALSE,1.981349246,-9.995468645,-0.866434545,,19.68068886,162.2049734,162.2049734,0.99874365,-0.016168175,-0.04743061,3.59E-04,0.93968666,-0.320051,-0.022086658,0,0,0,55,55,4096,0,42906,0,0,,,,,99.99,99.99,3.75E+07,0,0,0,,,,20151018,222,7124,0,0,0,0,Joystick,2,1,5,5,1,30,50,16,5,14,4,0,0,-17.551975,7.353869,1,0,0,0,0,Hover,,lost,71.42857,0,0,0,1,1,1,0,0,0,0,0,0,2,0,0,0,0,100,100,100,711,394,1291,1525,-36.58758515,378,431,1271,1394,-61.40495811,203,182,182,108,215,393,FALSE,FALSE,FALSE,FALSE,FALSE,FALSE,TRUE,FALSE,FALSE,FALSE,38,,,,,,,0.031999998,0,0,0.031999998,0,0.031999998,0.002,0,0.9987872,0.002,0,0.002,,1000000,0,0.3524372,0,,Joystick,OTHER,NONE,ALREADY,FALSE,Connected,,P,TRUE,FALSE,FALSE,96900,5,4.5,4.4,0.123,2.6720178,11.09609,-0.006394153,40.961094,2.6720178,11.09609,-0.006394153,40.961094,50.70301,0,1,1,0,2,65.85,68.67,56.43,53.12,0.99873966,-0.016240705,-0.04749002,3.61E-04,1.857060512,5.446824977,-0.129807261,104.52436,0.003857397,-0.021978892,0,0,1,0,0,0,0,2,0,,,
700889888,100.894,113.9589736,22.54265514,104.524345,104.524345,4.424347398,,15,-1.737921835,-4.918784232,-0.081866284,0.005365848,0.006461607,-1.0717846,1.0718175,8.023601,53.719357,-2.2604516,54.362278,-0.35003814,0.111417346,-0.012320092,0.36754906,0.36734251,1494,2,-128,1499,0.55,-0.081866284,5.21394753,-19.50263903,-19.42077274,359.9181337,0.071945917,0.153812201,-18.30478241,7.667203995,-4.610457265,4.610457265,-0.534734611,0.200615167,0.006062443,-0.18469647,0.089197821,0.018382535,22.54264838,113.9589767,FALSE,FALSE,1.900936834,-9.877553708,-0.244192667,,19.69415538,162.3178565,162.3178565,0.99896425,-0.015182328,-0.042895537,-6.29E-05,0.92758894,-0.32664162,-0.68915004,0,0,0,55,55,4096,0,42920,0,0,,,,,99.99,99.99,3.75E+07,0,0,0,,,,20151018,222,7126,0,0,0,0,Joystick,2,1,5,5,1,30,50,16,5,14,4,0,0,-17.565485,7.3581996,1,0,0,0,0,Hover,,lost,71.42857,0,0,1,1,1,1,0,0,0,0,0,0,2,0,0,0,0,100,100,100,714,394,1297,1532,-35.77041618,378,431,1271,1394,-60.19996355,204,182,184,108,215,393,FALSE,FALSE,FALSE,FALSE,FALSE,FALSE,TRUE,FALSE,FALSE,FALSE,38,,,,,,,0.031999998,0,0,0.031999998,0,0.031999998,0.002,0,0.99877876,0.002,0,0.002,,1000000,0,0.3524372,0,,Joystick,OTHER,NONE,ALREADY,FALSE,Connected,,P,TRUE,FALSE,FALSE,96900,5,4.5,4.4,0.123,2.9169316,4.4496903,1.2519561,40.13885,2.9169316,4.4496903,1.2519561,40.13885,44.095882,0,1,1,0,2,62.55,63.75,60.93,55.27,0.9988174,-0.015775695,-0.045989487,1.67E-04,1.805042657,5.274133768,-0.102287511,104.52426,-0.00404359,-0.7855997,0,0,1,0,0,0,0,2,0,,,
701046451,100.929,113.9589736,22.54265505,104.52501,104.52501,4.425011155,,15,-1.256202127,-2.700129188,-0.101794086,-0.00433775,-0.010664754,-1.0898185,1.0898793,21.102928,82.28361,-2.8798032,84.99541,-0.32809055,0.10283946,-0.033779345,0.34548575,0.343830435,1498,2,-70,1499,0.55,-0.101794086,2.977259589,-25.0387062,-24.93691211,359.8982059,-0.017762255,0.084031831,-18.3153742,7.670553917,-4.611156627,4.611156627,-0.534734611,0.200615167,0.006062443,-0.206644062,0.097775705,0.039841789,22.54264829,113.9589767,FALSE,FALSE,1.838140358,-9.366936791,2.121212838,,19.70478202,162.5705067,162.5705067,0.99966216,-0.010980093,-0.023549732,-6.30E-04,0.5410168,-0.24405487,-0.85375714,0,0,0,55,55,4096,0,42932,0,0,,,,,99.99,99.99,3.75E+07,0,0,0,,,,20151018,222,7128,0,0,0,0,Joystick,2,1,5,5,1,30,50,16,5,14,4,0,0,-17.579512,7.362662,1,0,0,0,0,Hover,,lost,71.42857,0,0,1,1,1,1,0,0,0,0,0,0,2,0,0,0,0,100,100,100,714,394,1303,1537,-32.93182168,378,431,1271,1394,-55.25749836,204,182,187,108,215,393,FALSE,FALSE,FALSE,FALSE,FALSE,FALSE,TRUE,FALSE,FALSE,FALSE,38,,,,,,,0.031999998,0,0,0.031999998,0,0.031999998,0.002,0,0.99877876,0.002,0,0.002,,1000000,0,0.3524372,0,,Joystick,OTHER,NONE,ALREADY,FALSE,Connected,,P,TRUE,FALSE,FALSE,96900,5,4.5,4.4,0.123,-4.154975,-21.379725,1.647027,38.63385,-4.154975,-21.379725,1.647027,38.63385,55.042583,0,1,1,0,2,50.36,40.58,69.98,71.65,0.99966216,-0.010980093,-0.023549732,-6.30E-04,1.259601788,2.698545932,0.042518079,104.52501,-0.033779345,-0.85375714,0,0,1,0,0,0,1,2,-1,,,
701196578,100.962,113.9589737,22.54265495,104.52658,104.52658,4.426582811,,15,-0.348918636,-0.368012086,-0.131149217,-0.004008611,-7.62E-04,-1.0031269,1.0031352,24.863121,46.347263,-0.80190754,52.601204,-0.31852385,0.09747226,-0.049599238,0.33677644,0.333104016,1499,3,-9,1499,0.55,-0.131149217,0.507119723,-43.60555678,-43.47440757,359.8688508,-0.11256881,0.018580407,-18.32708824,7.674178652,-4.612782506,4.612782506,-0.534734611,0.13337978,0.006062443,-0.216210757,0.035907522,0.055661681,22.54264818,113.9589767,FALSE,FALSE,1.768327784,-8.434736642,4.51973327,,19.71656874,162.9586811,162.9586811,0.99998957,-0.003048543,-0.003208004,-0.001134703,0.08719722,-0.072947234,0.036942344,0,0,0,55,55,4096,0,42946,0,0,,,,,99.99,99.99,3.75E+07,0,0,0,,,,20151018,222,7129,0,0,0,0,Joystick,2,1,5,5,1,30,50,16,5,14,4,0,0,-17.587696,7.3652215,1,0,0,0,0,Hover,,lost,71.42857,0,0,0,1,1,1,0,0,0,0,0,0,2,0,0,0,0,100,100,100,707,398,1313,1543,-30.16398093,378,431,1271,1394,-49.86953328,202,183,188,108,215,393,FALSE,FALSE,FALSE,FALSE,FALSE,FALSE,TRUE,FALSE,FALSE,FALSE,38,,,,,,,0.031999998,0,0,0.031999998,0,0.031999998,0.002,0,0.99877876,0.002,0,0.002,,1000000,0,0.3524372,0,,Joystick,OTHER,NONE,ALREADY,FALSE,Connected,,P,TRUE,FALSE,FALSE,97000,5,4.5,4.4,0.123,-3.8655164,3.1624804,1.6570103,37.91504,-3.8655164,3.1624804,1.6570103,37.91504,44.541595,0,1,1,0,2,64.08,57.1,56.08,57.98,0.9999232,-0.006565768,-0.010456972,-0.001055549,0.753610407,1.197585231,0.113089895,104.52584,-0.047503002,-0.45582566,0,0,1,0,0,0,1,2,-1,,,
701350932,100.996,113.9589737,22.54265486,104.527954,104.527954,4.427956102,,15,0.274806178,0.91698023,-0.117522137,-0.001377409,0.004490801,-0.9562497,0.9562612,17.549154,43.87684,1.8469192,47.292294,-0.3195831,0.09724596,-0.040459804,0.3364924,0.334051081,1499,3,23,1499,0.55,-0.117522137,0.957259312,163.2009625,163.3184847,359.8824779,-0.110437068,0.00708507,-18.33706218,7.677219024,-4.614216602,4.614216602,-0.534734611,0.13337978,0.006062443,-0.215151523,0.036133818,0.046522247,22.54264809,113.9589768,FALSE,FALSE,1.786041952,-7.8086443,5.863733104,,19.7265457,163.0718253,163.0718253,0.99996465,0.002406263,0.00799959,-0.001006348,-0.1301391,0.0371683,0.4083535,0,0,0,55,55,4096,0,42958,0,0,,,,,99.99,99.99,3.75E+07,0,0,0,,,,20151018,222,7131,0,0,0,0,Joystick,2,1,5,5,1,30,50,16,5,14,4,0,0,-17.598867,7.3686485,1,0,0,0,0,Hover,,lost,71.42857,0,0,0,1,1,1,0,0,0,0,0,0,2,0,0,0,0,100,100,100,704,398,1297,1528,-28.39587301,378,431,1271,1394,-46.84888408,201,183,184,108,215,393,FALSE,FALSE,FALSE,FALSE,FALSE,FALSE,TRUE,FALSE,FALSE,FALSE,38,,,,,,,0.031999998,0,0,0.031999998,0,0.031999998,0.002,0,0.9999902,0.002,0,0.002,,1000000,0,0.3524372,0,,Joystick,OTHER,NONE,ALREADY,FALSE,Connected,,P,TRUE,FALSE,FALSE,97000,5,4.5,4.4,0.123,0.57533985,-2.5064104,0.43075496,38.93315,0.57533985,-2.5064104,0.43075496,38.93315,41.543034,0,1,1,0,2,58.35,58.31,61.85,60.6,0.9999791,0.001666312,0.006159589,-0.001026326,-0.191666124,-0.705648073,0.116430477,104.52774,-0.04248261,0.39570785,0,0,1,0,0,0,1,2,-1,,,
701502710,101.03,113.9589737,22.54265476,104.52911,104.52911,4.42911577,,15,0.769990364,2.354122321,-0.116459416,-0.002303737,-0.005070114,-0.9628737,0.9628898,13.317682,33.507187,0.53128445,36.060707,-0.32870552,0.10018574,-0.026481321,0.3446531,0.343634261,1498,3,61,1499,0.55,-0.116459416,2.476579043,161.7800756,161.896535,359.8835406,-0.08331121,0.033148207,-18.34888346,7.680818204,-4.615433766,4.615433766,-0.534734611,0.13337978,0.006062443,-0.206029091,0.033194043,0.032543764,22.54264798,113.9589768,FALSE,FALSE,1.801371471,-7.273037778,7.372140994,,19.73836717,163.0532359,163.0532359,0.999766,0.006738838,0.020534847,-8.78E-04,-0.36947694,0.121284164,0.3576477,0,0,0,55,55,4096,0,42972,0,0,,,,,99.99,99.99,3.75E+07,0,0,0,,,,20151018,222,7133,0,0,0,0,Joystick,2,1,5,5,1,30,50,16,5,14,4,0,0,-17.611702,7.3725543,1,0,0,0,0,Hover,,lost,71.42857,0,0,1,1,1,1,0,0,0,0,0,0,2,0,0,0,0,100,100,100,704,398,1294,1525,-26.69744523,378,431,1271,1394,-43.89763599,200,183,183,108,215,393,FALSE,FALSE,FALSE,FALSE,FALSE,FALSE,TRUE,FALSE,FALSE,FALSE,38,,,,,,,0.031999998,0,0,0.031999998,0,0.031999998,0.002,0,0.9999902,0.002,0,0.002,,1000000,0,0.3524372,0,,Joystick,OTHER,NONE,ALREADY,FALSE,Connected,,P,TRUE,FALSE,FALSE,97000,5,4.5,4.4,0.123,-0.5588504,-3.1853814,0.41833776,39.675556,-0.5588504,-3.1853814,0.41833776,39.675556,41.95113,0,1,1,0,2,59.28,57.85,62.16,62.12,0.999766,0.006738838,0.020534847,-8.78E-04,-0.774122969,-2.352767746,0.084742012,104.52911,-0.026481321,0.3576477,0,0,1,0,0,0,3,2,-3,,,
701655857,101.064,113.9589737,22.54265467,104.52977,104.52977,4.429771897,,15,1.127600392,3.230781459,-0.120276152,0.008497765,0.00675125,-0.9812155,0.9812755,9.486045,25.239338,0.49188468,26.967594,-0.3424881,0.10486964,-0.017545864,0.35861346,0.35818396,1497,3,84,1499,0.55,-0.120276152,3.421118294,160.6564242,160.7767004,359.8797238,-0.051449857,0.068826295,-18.35933948,7.68401145,-4.616110702,4.616110702,-0.534734611,0.13337978,0.006062443,-0.192246501,0.028510138,0.023608307,22.54264789,113.9589768,FALSE,FALSE,1.842935483,-6.897719422,8.273093564,,19.74886757,162.974996,162.974996,0.999554,0.009865683,0.028178446,-7.72E-04,-0.5260155,0.1838315,0.24228927,0,0,0,55,55,4096,0,42984,0,0,,,,,99.99,99.99,3.75E+07,0,0,0,,,,20151018,222,7134,0,0,0,0,Joystick,2,1,5,5,1,30,50,16,5,14,4,0,0,-17.619946,7.3750677,1,0,0,0,0,Hover,,lost,71.42857,0,0,0,1,1,1,0,0,0,0,0,0,2,0,0,0,0,100,100,100,701,398,1285,1516,-25.7447728,378,431,1271,1394,-42.08281833,200,182,180,108,215,393,FALSE,FALSE,FALSE,FALSE,FALSE,FALSE,TRUE,FALSE,FALSE,FALSE,38,,,,,,,0.031999998,0,0,0.031999998,0,0.031999998,0.002,0,0.9999902,0.002,0,0.002,,1000000,0,0.3524372,0,   7134 [L-SEND DATA][ERROR][AddBag] Bag 0 of device 9 is occupied,Joystick,OTHER,NONE,ALREADY,FALSE,Connected,,P,TRUE,FALSE,FALSE,97100,5,4.5,4.4,0.123,-0.6531531,0.5979454,0.30226701,40.098366,-0.6531531,0.5979454,0.30226701,40.098366,41.285294,0,1,1,0,2,61.66,60.52,60.34,60.58,0.99962366,0.008897352,0.025936753,-8.05E-04,-1.021624309,-2.971998588,0.065772176,104.52958,-0.020127166,0.27694482,0,0,1,0,0,0,3,2,-3,,,
701805907,101.097,113.9589738,22.54265456,104.53026,104.53026,4.430260179,,15,1.436752325,4.031506359,-0.125454473,0.005270627,-0.001621801,-0.98400515,0.9840206,8.005124,20.501896,1.958971,22.09632,-0.36361283,0.11240627,-0.01070096,0.38074136,0.380590941,1496,3,105,1499,0.55,-0.125454473,4.278283617,160.2855657,160.4110202,359.8745455,-0.013996366,0.111458108,-18.37217309,7.687959321,-4.616616544,4.616616544,-0.338098719,0.13337978,0.006062443,0.025514111,0.020973511,0.016763403,22.54264778,113.9589769,FALSE,FALSE,1.885999601,-6.582098862,9.096908598,,19.76176672,162.8283474,162.8283474,0.9993025,0.01256844,0.03515777,-6.53E-04,-0.66716135,0.23916976,0.16137597,0,0,0,55,55,4096,0,42998,0,0,,,,,99.99,99.99,3.75E+07,0,0,0,,,,20151018,222,7136,0,0,0,0,Joystick,2,1,5,5,1,30,50,16,5,14,4,0,0,-17.631987,7.378758,1,0,0,0,0,Hover,,lost,71.42857,0,0,0,1,1,1,0,0,0,0,0,0,2,0,0,0,0,100,100,100,704,394,1279,1512,-24.52914781,378,431,1271,1394,-40.5006357,203,182,178,108,215,393,FALSE,FALSE,FALSE,FALSE,FALSE,FALSE,TRUE,FALSE,FALSE,FALSE,38,,,,,,,0.031999998,0,0,0.031999998,0,0.031999998,0.002,0,0.9999902,0.002,0,0.002,,1000000,0,0.35754958,0,,Joystick,OTHER,NONE,ALREADY,FALSE,Connected,,P,TRUE,FALSE,FALSE,97100,5,4.5,4.4,0.123,-0.33482134,-2.0858781,0.25741363,40.240566,-0.33482134,-2.0858781,0.25741363,40.240566,41.736164,0,1,1,0,2,60.15,59.31,62,61.96,0.999339,0.012243308,0.034225106,-6.71E-04,-1.404825817,-3.922614791,0.028868077,104.5302,-0.011529667,0.16910507,0,0,1,0,0,0,3,2,-3,,,
701956133,101.131,113.9589738,22.54265446,104.53051,104.53051,4.430511949,,15,1.620816142,4.57245426,-0.126891944,-0.00642403,-0.009797711,-0.98345745,0.98352724,3.531003,15.586734,1.8597854,16.089533,-0.38527817,0.12014727,-0.006334167,0.403627,0.403577284,1495,3,119,1499,0.55,-0.126891944,4.848933088,160.3885371,160.515429,359.8731081,0.014024397,0.140916341,-18.38386141,7.691588679,-4.616880217,4.616880217,-0.338098719,0.13337978,0.006062443,0.047179446,0.013232507,0.01239661,22.54264767,113.9589769,FALSE,FALSE,1.895596685,-6.39611539,9.678015355,,19.77350904,162.6882132,162.6882132,0.9991041,0.01417672,0.03987194,-5.42E-04,-0.7635824,0.27221054,0.1282113,0,0,0,55,55,4096,0,43010,0,0,,,,,99.99,99.99,3.75E+07,0,0,0,,,,20151018,222,7137,0,0,0,0,Joystick,2,1,5,5,1,30,50,16,5,14,4,0,0,-17.639194,7.380984,1,0,0,0,0,Hover,,lost,71.42857,0,0,0,1,1,1,0,0,0,0,0,0,2,0,0,0,0,100,100,100,711,391,1288,1522,-23.57313386,378,431,1271,1394,-39.49840381,203,181,182,108,215,393,FALSE,FALSE,FALSE,FALSE,FALSE,FALSE,TRUE,FALSE,FALSE,FALSE,38,,,,,,,0.031999998,0,0,0.031999998,0,0.031999998,0.002,0,0.9993757,0.002,0,0.002,,1000000,0,0.35754958,0,,Joystick,OTHER,NONE,ALREADY,FALSE,Connected,,P,TRUE,FALSE,FALSE,97100,5,4.5,4.4,0.123,-0.3475542,-0.49365744,0.1806401,40.34101,-0.3475542,-0.49365744,0.1806401,40.34101,40.755196,0,1,1,0,2,61.01,60.38,61.17,61.27,0.9991974,0.013442222,0.037728924,-5.96E-04,-1.541893893,-4.324697192,0.010185679,104.530396,-0.008399231,0.14265943,0,0,1,0,0,0,0,2,0,,,
702107461,101.164,113.9589739,22.54265433,104.530655,104.530655,4.430656907,,15,1.763522611,4.987280551,-0.125781449,-0.007379748,-0.007254472,-0.9849362,0.98499054,2.147428,7.9064527,1.2782142,8.292001,-0.41349292,0.13019164,-0.002173677,0.43351007,0.433504628,1494,3,130,1499,0.55,-0.125781449,5.286935789,160.4402575,160.5660389,359.8742186,0.038286193,0.164067641,-18.3983992,7.696144586,-4.617033071,4.617033071,-0.338098719,0.13337978,0.006062443,0.075394199,0.00318814,0.00823612,22.54264754,113.9589769,FALSE,FALSE,1.910987659,-6.262502912,10.07948629,,19.78813411,162.534183,162.534183,0.9989349,0.015422201,0.04348644,-4.27E-04,-0.8379366,0.29783282,0.10711839,0,0,0,55,55,4096,0,43024,0,0,,,,,99.99,99.99,3.75E+07,0,0,0,,,,20151018,222,7139,0,0,0,0,Joystick,2,1,5,5,1,30,50,16,5,14,4,0,0,-17.65446,7.3857384,1,0,0,0,0,Hover,,lost,71.42857,0,0,0,1,1,1,0,0,0,0,0,0,2,0,0,0,0,100,100,100,707,394,1303,1533,-23.3690233,378,431,1271,1394,-38.74207081,202,182,186,108,215,393,FALSE,FALSE,FALSE,FALSE,FALSE,FALSE,TRUE,FALSE,FALSE,FALSE,,,,,,,,0.031999998,0,0,0.031999998,0,0.031999998,0.002,0,0.9993757,0.002,0,0.002,,1000000,0,0.35754958,0,,Joystick,OTHER,NONE,ALREADY,FALSE,Connected,,P,TRUE,FALSE,FALSE,97200,5,4.5,4.4,0.123,-0.313046,-0.6359436,0.14698552,40.417686,-0.313046,-0.6359436,0.14698552,40.417686,40.94174,0,1,1,0,2,60.95,60.4,61.29,61.4,0.9989775,0.015129295,0.04260002,-4.59E-04,-1.734424261,-4.883963315,-0.021280868,104.530624,-0.003285915,0.1125231,0,0,1,0,0,0,0,2,0,,,
702257976,101.198,113.9589739,22.54265422,104.53067,104.53067,4.430672166,,15,1.83278198,5.228254399,-0.121547465,0.007040066,0.0063021,-1.0037119,1.0037564,0.4359837,7.604606,0.7966943,7.6586447,-0.43938062,0.13935426,8.45E-04,0.46095082,0.460950043,1493,3,136,1499,0.55,-0.121547465,5.536841045,160.6037667,160.7253142,359.8784525,0.051639046,0.173186511,-18.4117606,7.700367452,-4.617052783,4.617052783,-0.338098719,0.13337978,-0.021287879,0.101281897,-0.005974479,-0.022132849,22.54264742,113.958977,FALSE,FALSE,1.93762031,-6.209361555,10.32941704,,19.80153104,162.4014774,162.4014774,0.9988318,0.016025078,0.045586493,-3.30E-04,-0.88145274,0.31061172,0.091113366,0,0,0,55,55,4096,0,43036,0,0,,,,,99.99,99.99,3.75E+07,0,0,0,,,,20151018,222,7141,0,0,0,0,Joystick,2,1,5,5,1,30,50,16,5,14,4,0,0,-17.671003,7.3909464,1,0,0,0,0,Hover,,lost,71.42857,0,0,0,1,1,1,0,0,0,0,0,0,2,0,0,0,0,100,100,100,704,394,1310,1538,-23.18779527,378,431,1271,1394,-38.33089945,200,182,188,108,215,393,FALSE,FALSE,FALSE,FALSE,FALSE,FALSE,TRUE,FALSE,FALSE,FALSE,,,,,,,,0.031999998,0,0,0.031999998,0,0.031999998,0.002,0,0.9993757,0.002,0,0.002,,1000000,0,0.35754958,0,,Joystick,OTHER,NONE,ALREADY,FALSE,Connected,,P,TRUE,FALSE,FALSE,97300,5,4.5,4.4,0.123,-0.22416255,-0.75740004,0.10149296,40.50586,-0.22416255,-0.75740004,0.10149296,40.50586,41.098434,0,1,1,0,2,60.87,60.49,61.44,61.52,0.9988318,0.016025078,0.045586493,-3.30E-04,-1.836231649,-5.227046545,-0.045962887,104.53067,8.45E-04,0.091113366,0,0,1,0,0,0,0,2,0,,,
702408705,101.231,113.9589739,22.54265408,104.530594,104.530594,4.430595872,,15,1.86262456,5.375351865,-0.113045719,0.005133721,0.006084725,-0.9975608,0.99759257,0.05707203,2.3233447,-0.89603734,2.4907973,-0.47082418,0.15036105,0.003806915,0.49426547,0.494250802,1493,2,140,1499,0.55,-0.113045719,5.685354517,160.8209527,160.9339984,359.8869543,0.09748957,0.210535289,-18.42831999,7.705638563,-4.616966387,4.616966387,-0.338098719,0.13337978,-0.021287879,0.132725463,-0.016981267,-0.025094794,22.54264727,113.958977,FALSE,FALSE,1.950950324,-6.204309208,10.47890545,,19.81822796,162.3094819,162.3094819,0.99876827,0.016282115,0.04686936,-2.23E-04,-0.9092989,0.31652987,0.07492288,0,0,0,55,55,4096,0,43050,0,0,,,,,99.99,99.99,3.75E+07,0,0,0,,,,20151018,222,7142,0,0,0,0,Joystick,2,1,5,5,1,30,50,16,5,14,4,0,0,-17.67979,7.393734,1,0,0,0,0,Hover,,lost,71.42857,0,0,1,1,1,1,0,0,0,0,0,0,2,0,0,0,0,100,100,100,701,394,1303,1531,-23.17103377,378,431,1271,1394,-38.10241986,200,182,186,108,215,393,FALSE,FALSE,FALSE,FALSE,FALSE,FALSE,TRUE,FALSE,FALSE,FALSE,,,,,,,,0.031999998,0,0,0.031999998,0,0.031999998,0.002,0,0.9988458,0.002,0,0.002,,1000000,0,0.35754958,0,   7142 [L-FMU][DB]FATAL ERROR fail to fill data 278 for invalid src,Joystick,OTHER,NONE,ALREADY,FALSE,Connected,,P,TRUE,FALSE,FALSE,97300,5,4.5,4.4,0.123,-0.17808066,-0.3504491,0.06875618,40.57304,-0.17808066,-0.3504491,0.06875618,40.57304,40.87801,0,1,1,0,2,61.09,60.8,61.27,61.36,0.9987881,0.01622334,0.04646595,-2.68E-04,-1.858556816,-5.328129069,-0.055755675,104.53064,0.002609342,0.08162245,0,0,1,0,0,0,0,2,0,,,
702558909,101.265,113.958974,22.54265395,104.53045,104.53045,4.430450914,,15,1.854225097,5.410732445,-0.103428657,-4.15E-04,-0.006438498,-1.0032158,1.0032365,-0.33051178,-1.6962477,1.5903602,2.348561,-0.4982608,0.15985404,0.005884562,0.52330846,0.523275379,1493,2,141,1499,0.55,-0.103428657,5.716073017,161.0264547,161.1298833,359.8965713,0.097935619,0.201364276,-18.44347506,7.710490107,-4.616813836,4.616813836,-0.338098719,0.114210786,-0.021287879,0.160162077,-0.045643254,-0.02717244,22.54264713,113.9589771,FALSE,FALSE,1.946888258,-6.222077847,10.51716859,,19.83348256,162.2281679,162.2281679,0.998755,0.016205017,0.04717922,-1.38E-04,-0.91716266,0.31562704,0.06103207,0,0,0,55,55,4096,0,43062,0,0,,,,,99.99,99.99,3.75E+07,0,0,0,,,,20151018,222,7144,0,0,0,0,Joystick,2,1,5,5,1,30,50,16,5,14,4,0,0,-17.700888,7.4004645,1,0,0,0,0,Hover,,lost,71.42857,0,0,0,1,1,1,0,0,0,0,0,0,2,0,0,0,0,100,100,100,707,394,1294,1526,-23.05170561,378,431,1271,1394,-38.07320295,202,182,183,108,215,393,FALSE,FALSE,FALSE,FALSE,FALSE,FALSE,TRUE,FALSE,FALSE,FALSE,38,,,,,,,0.031999998,0,0,0.031999998,0,0.031999998,0.002,0,0.9988458,0.002,0,0.002,,1000000,0,0.35754958,0,,Joystick,OTHER,NONE,ALREADY,FALSE,Connected,,P,TRUE,FALSE,FALSE,97300,5,4.5,4.4,0.123,-0.16550183,-0.5596008,0.041567665,40.630272,-0.16550183,-0.5596008,0.041567665,40.630272,41.10143,0,1,1,0,2,61,60.76,61.41,61.52,0.998755,0.016234638,0.047169544,-1.52E-04,-1.859181996,-5.409093703,-0.070436353,104.53047,0.00556716,0.063355885,0,0,1,0,0,0,0,2,0,,,
702708989,101.298,113.958974,22.54265381,104.53024,104.53024,4.43024492,,15,1.819747605,5.375504181,-0.092140741,0.007293655,0.003727343,-1.0032231,1.0032566,-2.6817138,-2.1274354,1.1642072,3.6156533,-0.5257349,0.16924345,0.007558405,0.5523565,0.552304751,1493,2,140,1499,0.55,-0.092140741,5.671758603,161.2508299,161.3429706,359.9078593,0.093486746,0.185627487,-18.45945099,7.715624833,-4.616603176,4.616603176,-0.338098719,0.114210786,-0.021287879,0.187636182,-0.055032669,-0.028846284,22.54264699,113.9589771,FALSE,FALSE,1.941836579,-6.260871344,10.48977816,,19.84960729,162.1743524,162.1743524,0.9987743,0.015899854,0.046874236,-5.85E-05,-0.9127732,0.31012583,0.048073478,0,0,0,55,55,4096,0,43074,0,0,,,,,99.99,99.99,3.75E+07,0,0,0,,,,20151018,223,7145,0,0,0,0,Joystick,2,1,5,5,1,30,50,16,5,14,4,0,0,-17.708332,7.4028506,1,0,0,0,0,Hover,,lost,71.42857,0,0,0,1,1,1,0,0,0,0,0,0,2,0,0,0,0,100,100,100,711,394,1291,1525,-23.03049953,378,431,1271,1394,-38.17235369,203,182,181,108,215,393,FALSE,FALSE,FALSE,FALSE,FALSE,FALSE,TRUE,FALSE,FALSE,FALSE,38,,,,,,,0.031999998,0,0,0.031999998,0,0.031999998,0.002,0,0.9988458,0.002,0,0.002,,1000000,0,0.35754958,0,,Joystick,OTHER,NONE,ALREADY,FALSE,Connected,,P,TRUE,FALSE,FALSE,97300,5,4.5,4.4,0.119,-0.717851,-2.8469381,0.016878376,40.682022,-0.717851,-2.8469381,0.016878376,40.682022,43.18583,0,1,1,0,2,60.1,59.2,62.34,63.07,0.9987605,0.01607868,0.047104746,-9.72E-05,-1.84103894,-5.401719722,-0.075703165,104.53035,0.00676978,0.054296818,0,0,1,0,0,0,0,2,0,,,
702859870,101.332,113.9589741,22.54265364,104.529945,104.529945,4.429947374,,15,1.729225591,5.158479415,-0.074006314,0.006911655,-0.002358415,-1.0075841,1.0076106,-4.098174,-12.684213,-0.92527014,13.361901,-0.55722123,0.17986478,0.009296704,0.585605,0.585531246,1493,1,134,1499,0.55,-0.074006314,5.4376423,161.4352685,161.5092749,359.9259937,0.11635178,0.190358094,-18.47921662,7.721997002,-4.616295704,4.616295704,-0.338098719,0.114210786,-0.021287879,0.219122515,-0.065653994,-0.030584583,22.54264681,113.9589772,FALSE,FALSE,1.949654998,-6.368127783,10.27218167,,19.86950056,162.1161303,162.1161303,0.9988734,0.015103537,0.044986155,3.40E-05,-0.8796385,0.2955943,0.033896472,0,0,0,55,55,4096,0,43088,0,0,,,,,99.99,99.99,3.75E+07,0,0,0,,,,20151018,223,7147,0,0,0,0,Joystick,2,1,5,5,1,30,50,16,5,14,4,0,0,-17.729189,7.4095573,1,0,0,0,0,Hover,,lost,71.42857,0,0,1,1,1,1,0,0,0,0,0,0,2,0,0,0,0,100,100,100,714,394,1294,1529,-23.18191502,378,431,1271,1394,-38.58582233,204,182,183,108,215,393,FALSE,FALSE,FALSE,FALSE,FALSE,FALSE,TRUE,FALSE,FALSE,FALSE,38,,,,,,,0.031999998,0,0,0.031999998,0,0.031999998,0.002,0,0.99877393,0.002,0,0.002,,1000000,0,0.35754958,0,,Joystick,OTHER,NONE,ALREADY,FALSE,Connected,,P,TRUE,FALSE,FALSE,97300,5,4.5,4.4,0.119,-0.32284188,-0.566505,-0.037814967,40.712215,-0.32284188,-0.566505,-0.037814967,40.712215,41.378895,0,1,1,0,2,61.08,60.79,61.33,61.73,0.9988262,0.015434454,0.04591302,7.81E-06,-1.766820984,-5.264988408,-0.08213797,104.53004,0.008813541,0.040834233,0,0,1,0,0,0,0,2,0,,,
703010711,101.365,113.9589742,22.54265348,104.52965,104.52965,4.429649827,,15,1.556945181,4.640192607,-0.052555834,-0.009762557,0.001322602,-1.0074276,1.0074757,-5.6608396,-20.084171,0.6129254,20.875696,-0.58233,0.18829834,0.01034227,0.6121041,0.612016747,1495,1,121,1499,0.55,-0.052555834,4.892273652,161.4326148,161.4851707,359.9474442,0.087401542,0.139957376,-18.49705448,7.727760072,-4.615986978,4.615986978,-0.338098719,0.114210786,-0.021287879,0.244231269,-0.074087559,-0.031630149,22.54264665,113.9589772,FALSE,FALSE,1.962517483,-6.540722821,9.720066688,,19.88745017,162.0836129,162.0836129,0.99908817,0.013593918,0.040472288,9.18E-05,-0.79466605,0.26695022,0.024218295,0,0,0,55,55,4096,0,43100,0,0,,,,,99.99,99.99,3.75E+07,0,0,0,,,,20151018,223,7149,0,0,0,0,Joystick,2,1,5,5,1,30,50,16,5,14,4,0,0,-17.75435,7.4176807,1,0,0,0,0,Hover,,lost,71.42857,0,0,1,1,1,1,0,0,0,0,0,0,2,0,0,0,0,100,100,100,714,394,1303,1537,-23.66590492,378,431,1271,1394,-39.51562884,204,183,187,108,215,393,FALSE,FALSE,FALSE,FALSE,FALSE,FALSE,TRUE,FALSE,FALSE,FALSE,38,,,,,,,0.031999998,0,0,0.031999998,0,0.031999998,0.002,0,0.99877393,0.002,0,0.002,,1000000,0,0.35754958,0,,Joystick,OTHER,NONE,ALREADY,FALSE,Connected,,P,TRUE,FALSE,FALSE,97400,5,4.5,4.4,0.123,-0.08441887,-0.052672654,-0.018350994,40.710773,-0.08441887,-0.052672654,-0.018350994,40.710773,40.82606,0,1,1,0,2,61.24,61.17,61.2,61.32,0.99908817,0.013593918,0.040472288,9.18E-05,-1.556093427,-4.640477974,-0.073582004,104.52965,0.01034227,0.024218295,0,0,1,0,0,0,0,2,0,,,
703162656,101.399,113.9589742,22.5426533,104.529274,104.529274,4.429275987,,15,1.29718327,3.90881503,-0.026702144,-0.008239603,0.008106484,-1.0016103,1.001677,-6.7451687,-22.160309,-1.0258087,23.186827,-0.6078628,0.19683835,0.010970589,0.6390327,0.638938568,1496,0,102,1499,0.55,-0.026702144,4.117171765,161.6379663,161.6646685,359.9732979,0.088231948,0.114934091,-18.51873296,7.734775487,-4.615597484,4.615597484,-0.465344745,0.114210786,-0.021287879,0.142518025,-0.082627564,-0.032258468,22.54264646,113.9589773,FALSE,FALSE,1.931668429,-6.820253328,8.949256972,,19.9093333,162.0504882,162.0504882,0.99935436,0.01132118,0.034099407,1.53E-04,-0.67062616,0.2228886,0.007556703,0,0,0,55,55,4096,0,43114,0,0,,,,,99.99,99.99,3.75E+07,0,0,0,,,,20151018,223,7150,0,0,0,0,Joystick,2,1,5,5,1,30,50,16,5,14,4,0,0,-17.766075,7.421472,1,0,0,0,0,Hover,,lost,71.42857,0,0,0,1,1,1,0,0,0,0,0,0,2,0,0,0,0,100,100,100,711,398,1307,1540,-24.7470522,378,431,1271,1394,-40.88838119,203,183,186,108,215,393,FALSE,FALSE,FALSE,FALSE,FALSE,FALSE,TRUE,FALSE,FALSE,FALSE,38,,,,,,,0.031999998,0,0,0.031999998,0,0.031999998,0.002,0,0.99877393,0.002,0,0.002,,1000000,0,0.35754958,0,,Joystick,OTHER,NONE,ALREADY,FALSE,Connected,,P,TRUE,FALSE,FALSE,97400,5,4.5,4.4,0.123,-0.23190865,-1.3204213,-0.029088205,40.69672,-0.23190865,-1.3204213,-0.029088205,40.69672,41.82347,0,1,1,0,2,60.63,60.43,61.77,62.06,0.99924165,0.012340711,0.036929805,1.27E-04,-1.41267356,-4.23395267,-0.066812606,104.52944,0.010763958,0.01454265,0,0,1,0,0,0,0,2,0,,,
703319713,101.434,113.9589743,22.54265313,104.528946,104.528946,4.428947923,,15,1.041545249,3.170142694,-0.006065691,-0.004624405,-0.006045614,-0.9960651,0.99609417,-9.403684,-27.579367,-0.12509422,29.138742,-0.6260024,0.20282851,0.011205947,0.6581367,0.658041303,1497,0,82,1499,0.55,-0.006065691,3.336195507,161.8215534,161.8276191,359.9939343,0.056963395,0.063029087,-18.53804009,7.741029568,-4.615250243,4.615250243,-0.465344745,0.114210786,-0.021287879,0.160657626,-0.088617726,-0.032493826,22.54264628,113.9589774,FALSE,FALSE,1.928786544,-7.073988439,8.177241247,,19.92877518,162.0543855,162.0543855,0.99957615,0.009087059,0.02765956,1.99E-04,-0.54536635,0.1792465,0.002548454,0,0,0,55,55,4096,0,43126,0,0,,,,,99.99,99.99,3.75E+07,0,0,0,,,,20151018,223,7152,0,0,0,0,Joystick,2,1,5,5,1,30,50,16,5,14,4,0,0,-17.787285,7.42834,1,0,0,0,0,Hover,,lost,71.42857,0,0,0,1,1,1,0,0,0,0,0,0,2,0,0,0,0,100,100,100,704,394,1297,1527,-25.54137622,378,431,1271,1394,-42.3040192,201,182,184,108,215,393,FALSE,FALSE,FALSE,FALSE,FALSE,FALSE,TRUE,FALSE,FALSE,FALSE,38,,,,,,,0.031999998,0,0,0.031999998,0,0.031999998,0.002,0,0.99935424,0.002,0,0.002,,1000000,0,0.35754958,0,,Joystick,OTHER,NONE,ALREADY,FALSE,Connected,,P,TRUE,FALSE,FALSE,97400,5,4.5,4.4,0.123,-0.04987856,0.2860676,-0.038566776,40.67057,-0.04987856,0.2860676,-0.038566776,40.67057,40.87615,0,1,1,0,2,61.35,61.36,61,61.11,0.99954027,0.00947596,0.028800825,1.92E-04,-1.084798367,-3.301439684,-0.053225382,104.529,0.011176588,0.002713472,0,0,1,0,0,0,-1,2,1,,,
703471599,101.467,113.9589743,22.54265293,104.52855,104.52855,4.428551194,,15,0.715541743,2.218572294,0.0140092,0.002951199,0.004230724,-0.9997213,0.9997346,-10.968833,-27.667753,-1.5167379,29.801348,-0.6420614,0.20806798,0.011321886,0.6750284,0.674933436,1498,0,58,1499,0.55,0.0140092,2.330888301,162.145774,162.1317648,0.0140092,0.027683092,0.013673892,-18.56124804,7.74855006,-4.614837792,4.614837792,-0.465344745,0.114210786,-0.021287879,0.176716667,-0.093857198,-0.032609764,22.54264607,113.9589774,FALSE,FALSE,1.922970466,-7.432270187,7.174120081,,19.95209295,162.0521081,162.0521081,0.9997932,0.006240703,0.01935987,2.43E-04,-0.38241628,0.123459086,2.55E-04,0,0,0,55,55,4096,0,43140,0,0,,,,,99.99,99.99,3.75E+07,0,0,0,,,,20151018,223,7153,0,0,0,0,Joystick,2,1,5,5,1,30,50,16,5,14,4,0,0,-17.799747,7.432378,1,0,0,0,0,Hover,,lost,71.42857,0,0,1,1,1,1,0,0,0,0,0,0,2,0,0,0,0,100,100,100,704,394,1291,1522,-26.62760841,378,431,1271,1394,-44.18166344,200,182,181,108,215,393,FALSE,FALSE,FALSE,FALSE,FALSE,FALSE,TRUE,FALSE,FALSE,FALSE,38,,,,,,,0.031999998,0,0,0.031999998,0,0.031999998,0.002,0,0.99935424,0.002,0,0.002,,1000000,0,0.35754958,0,,Joystick,OTHER,NONE,ALREADY,FALSE,Connected,,P,TRUE,FALSE,FALSE,97500,5,4.5,4.4,0.123,0.016352043,-0.10388999,-0.04369822,40.661488,0.016352043,-0.10388999,-0.04369822,40.661488,40.767086,0,1,1,0,2,61.1,61.18,61.23,61.27,0.9997932,0.006240703,0.01935987,2.43E-04,-0.714462976,-2.218918904,-0.041701056,104.52855,0.011321886,2.55E-04,0,0,1,0,0,0,-1,2,1,,,
703624550,101.501,113.9589744,22.54265276,104.52821,104.52821,4.428215501,,15,0.426790824,1.387770142,0.026480924,0.00168816,-0.00703534,-1.0098444,1.0098703,-9.633434,-29.549307,-1.4776213,31.115076,-0.65123135,0.21097119,0.011304336,0.6846451,0.684551767,1499,0,36,1499,0.55,0.026480924,1.451865675,162.9347258,162.9082449,0.026480924,0.010246764,-0.01623416,-18.58140811,7.755082366,-4.614485042,4.614485042,-0.465344745,0.114210786,0.007603698,0.185886603,-0.096760406,-0.003700637,22.54264589,113.9589775,FALSE,FALSE,1.927376019,-7.753836667,6.302217742,,19.97247653,162.037654,162.037654,0.9999198,0.003721373,0.012111058,2.76E-04,-0.24005856,0.07401229,-0.003244212,0,0,0,55,55,4096,0,43152,0,0,,,,,99.99,99.99,3.75E+07,0,0,0,,,,20151018,223,7155,0,0,0,0,Joystick,2,1,5,5,1,30,50,16,5,14,4,0,0,-17.825258,7.4406433,1,0,0,0,0,Hover,,lost,71.42857,0,0,0,1,1,1,0,0,0,0,0,0,2,0,0,0,0,100,100,100,704,394,1282,1514,-27.61449962,378,431,1271,1394,-45.88134194,201,182,179,108,215,393,FALSE,FALSE,FALSE,FALSE,FALSE,FALSE,TRUE,FALSE,FALSE,FALSE,38,,,,,,,0.031999998,0,0,0.031999998,0,0.031999998,0.002,0,0.99935424,0.002,0,0.002,,1000000,0,0.35968956,0,   7154 [L-DBG1]realname limited:driver:APP_NEVER_CONNECT viechle:SUCCESS,Joystick,OTHER,NONE,ALREADY,FALSE,Connected,,P,TRUE,FALSE,FALSE,97500,5,4.5,4.4,0.123,0.06604978,0.17150961,-0.049397454,40.66189,0.06604978,0.17150961,-0.049397454,40.66189,40.879265,0,1,1,0,2,61.21,61.36,61.1,61.11,0.9998839,0.004563661,0.014540989,2.66E-04,-0.522460566,-1.666523934,-0.038060645,104.52832,0.011321152,-0.002290366,0,0,1,0,0,0,-1,2,1,,,
703774645,101.535,113.9589745,22.54265255,104.52782,104.52782,4.427818772,,15,0.091035489,0.410369577,0.034906152,0.009127082,0.002946207,-0.99126303,0.9913094,-10.926573,-28.95392,-0.9980884,30.963135,-0.6564934,0.21248141,0.011171396,0.6901136,0.690023149,1499,0,10,1499,0.55,0.034906152,0.420345195,167.5272857,167.4923796,0.034906152,6.07E-04,-0.034298858,-18.60525117,7.762803283,-4.614075234,4.614075234,-0.465344745,0.114210786,0.007603698,0.19114868,-0.098270624,-0.003567698,22.54264568,113.9589776,FALSE,FALSE,1.931459668,-8.103962529,5.275117868,,19.99652201,162.056119,162.056119,0.99999326,7.93E-04,0.003581383,3.07E-04,-0.07238516,0.016465416,-0.004885159,0,0,0,55,55,4096,0,43166,0,0,,,,,99.99,99.99,3.75E+07,0,0,0,,,,20151018,223,7157,0,0,0,0,Joystick,2,1,5,5,1,30,50,16,5,14,4,0,0,-17.851297,7.4490776,1,0,0,0,0,Hover,,lost,71.42857,0,0,0,1,1,1,0,0,0,0,0,0,2,0,0,0,0,100,100,100,707,394,1279,1513,-28.69312979,378,431,1271,1394,-47.93787402,202,181,179,108,215,393,FALSE,FALSE,FALSE,FALSE,FALSE,FALSE,TRUE,FALSE,FALSE,FALSE,38,,,,,,,0.031999998,0,0,0.031999998,0,0.031999998,0.002,0,0.9999352,0.002,0,0.002,,1000000,0,0.35968956,0,,Joystick,OTHER,NONE,ALREADY,FALSE,Connected,,P,TRUE,FALSE,FALSE,97500,5,4.5,4.4,0.123,0.11965575,0.4165578,-0.051556174,40.672264,0.11965575,0.4165578,-0.051556174,40.672264,41.10298,0,1,1,0,2,61.32,61.52,61.01,60.96,0.9999878,0.001207174,0.00478985,3.03E-04,-0.138163777,-0.548921604,-0.035433144,104.52787,0.011196995,-0.004655204,0,0,1,0,0,0,-1,2,1,,,
703925202,101.568,113.9589745,22.54265237,104.52748,104.52748,4.427483079,,15,-0.187149743,-0.399626492,0.037013561,-0.008992892,0.00202573,-0.99976826,0.99981076,-7.9860263,-25.616066,0.29440293,26.833675,-0.6563917,0.21219613,0.010972973,0.6899258,0.68983855,1499,0,-10,1499,0.55,0.037013561,0.441275524,-25.05694827,-25.09396183,0.037013561,0.001248467,-0.035765094,-18.62576557,7.769439254,-4.613729205,4.613729205,-0.465344745,0.186247898,0.007603698,0.191046935,-0.025948229,-0.003369275,22.54264549,113.9589777,FALSE,FALSE,1.905972676,-8.370178106,4.439513775,,20.01720859,162.0809443,162.0809443,0.9999925,-0.001632052,-0.003487915,3.29E-04,0.06691421,-0.031270217,-0.00706037,0,0,0,55,55,4096,0,43178,0,0,,,,,99.99,99.99,3.75E+07,0,0,0,,,,20151018,223,7158,0,0,0,0,Joystick,2,1,5,5,1,30,50,16,5,14,4,0,0,-17.864418,7.453325,1,0,0,0,0,Hover,,lost,71.42857,0,0,0,1,1,1,0,0,0,0,0,0,2,0,0,0,0,100,100,100,711,394,1291,1525,-29.56484465,378,431,1271,1394,-49.69216107,203,182,182,108,215,393,FALSE,FALSE,FALSE,FALSE,FALSE,FALSE,TRUE,FALSE,FALSE,FALSE,38,,,,,,,0.031999998,0,0,0.031999998,0,0.031999998,0.002,0,0.9999352,0.002,0,0.002,,1000000,0,0.35968956,0,,Joystick,OTHER,NONE,ALREADY,FALSE,Connected,,P,TRUE,FALSE,FALSE,97600,5,4.5,4.4,0.123,0.13636704,0.28945407,-0.05304668,40.69625,0.13636704,0.28945407,-0.05304668,40.69625,41.0504,0,1,1,0,2,61.26,61.48,61.1,61.04,0.9999998,-4.33E-04,4.85E-06,3.19E-04,0.049626014,-5.40E-04,-0.036519231,104.52765,0.01108175,-0.005819461,0,0,1,0,0,0,-1,2,1,,,
704077813,101.602,113.9589746,22.54265217,104.52711,104.52711,4.427109239,,15,-0.493055386,-1.295378418,0.034254825,0.00384754,0.004150727,-0.9939689,0.993985,-7.9412465,-24.7542,1.5854331,26.045105,-0.65113884,0.21010655,0.01064566,0.6842806,0.684197731,1499,0,-33,1499,0.55,0.034254825,1.385980961,-20.80112181,-20.83537664,0.034254825,0.010851694,-0.023403131,-18.64958365,7.777132248,-4.613335354,4.613335354,-0.465344745,0.186247898,0.007603698,0.185794097,-0.023858654,-0.003041961,22.54264528,113.9589777,FALSE,FALSE,1.916719015,-8.67269662,3.481882048,,20.041244,162.1225365,162.1225365,0.9999268,-0.004299053,-0.011305249,3.48E-04,0.22104986,-0.08383915,-0.009011323,0,0,0,55,55,4096,0,43192,0,0,,,,,99.99,99.99,3.75E+07,0,0,0,,,,20151018,223,7160,0,0,0,0,Joystick,2,1,5,5,1,30,50,16,5,14,4,0,0,-17.890673,7.4618134,1,0,0,0,0,Hover,,lost,71.42857,0,0,0,1,1,1,0,0,0,0,0,0,2,0,0,0,0,100,100,100,707,394,1297,1528,-30.87668175,378,431,1271,1394,-51.6803072,202,182,184,108,215,393,FALSE,FALSE,FALSE,FALSE,FALSE,FALSE,TRUE,FALSE,FALSE,FALSE,38,,,,,,,0.031999998,0,0,0.031999998,0,0.031999998,0.002,0,0.9999352,0.002,0,0.002,,1000000,0,0.35968956,0,,Joystick,OTHER,NONE,ALREADY,FALSE,Connected,,P,TRUE,FALSE,FALSE,97600,5,4.5,4.4,0.123,0.16306804,0.473025,-0.052932654,40.723553,0.16306804,0.473025,-0.052932654,40.723553,41.226273,0,1,1,0,2,61.37,61.62,61.04,60.95,0.99995196,-0.00355843,-0.009125118,3.43E-04,0.407391463,1.045835628,-0.042998784,104.527214,0.01074963,-0.008537408,0,0,1,0,0,0,-1,2,1,,,
704233917,101.637,113.9589747,22.54265199,104.526794,104.526794,4.426796434,,15,-0.734189892,-2.008028501,0.028294032,0.003922727,-0.003663583,-1.0011944,1.0012088,-8.248911,-23.906708,-1.0317105,25.310862,-0.6424922,0.20690921,0.010286642,0.6750655,0.674987128,1499,0,-52,1499,0.55,0.028294032,2.137833267,-20.04893882,-20.07723285,0.028294032,0.025452891,-0.002841141,-18.66987501,7.783673528,-4.613007,4.613007,-0.465344745,0.186247898,0.007603698,0.17714743,-0.020661312,-0.002682944,22.5426451,113.9589778,FALSE,FALSE,1.905327378,-8.907595125,2.737261572,,20.06161987,162.15033,162.15033,0.99982595,-0.006401662,-0.017523678,3.59E-04,0.34392345,-0.12536347,-0.010865546,0,0,0,55,55,4096,0,43204,0,0,,,,,99.99,99.99,3.75E+07,0,0,0,,,,20151018,223,7162,0,0,0,0,Joystick,2,1,5,5,1,30,50,16,5,14,4,0,0,-17.916708,7.470214,1,0,0,0,0,Hover,,lost,71.42857,0,0,0,1,1,1,0,0,0,0,0,0,2,0,0,0,0,100,100,100,707,391,1300,1530,-31.65381575,378,431,1271,1394,-53.29511465,201,181,185,108,215,393,FALSE,FALSE,FALSE,FALSE,FALSE,FALSE,TRUE,FALSE,FALSE,FALSE,38,,,,,,,0.031999998,0,0,0.031999998,0,0.031999998,0.002,0,0.9999125,0.002,0,0.002,,1000000,0,0.35968956,0,,Joystick,OTHER,NONE,ALREADY,FALSE,Connected,,P,TRUE,FALSE,FALSE,97600,5,4.5,4.4,0.123,0.18331026,0.49329284,-0.05142798,40.76195,0.18331026,0.49329284,-0.05142798,40.76195,41.29181,0,1,1,0,2,61.39,61.66,61.07,60.95,0.99982595,-0.006401662,-0.017523678,3.59E-04,0.732747442,2.008554609,-0.054006032,104.526794,0.010286642,-0.010865546,0,0,1,0,0,0,0,2,0,,,
704384043,101.67,113.9589747,22.54265179,104.52644,104.52644,4.426445481,,15,-0.986944291,-2.762397864,0.018391774,0.004737922,0.006961185,-0.99337965,0.99341536,-6.413363,-21.159958,1.2334629,22.144897,-0.6279727,0.20168833,0.009800375,0.6596393,0.659566469,1498,0,-72,1499,0.55,0.018391774,2.932897185,-19.63003028,-19.64842205,0.018391774,0.04737954,0.028987766,-18.69301546,7.791115955,-4.612641177,4.612641177,-0.465344745,0.186247898,0.007603698,0.162627977,-0.015440436,-0.002196676,22.54264489,113.9589779,FALSE,FALSE,1.887356258,-9.192255173,1.949936881,,20.08496161,162.1822316,162.1822316,0.99967235,-0.008606236,-0.024104621,3.68E-04,0.47425032,-0.16900805,-0.012687825,0,0,0,55,55,4096,0,43218,0,0,,,,,99.99,99.99,3.75E+07,0,0,0,,,,20151018,223,7163,0,0,0,0,Joystick,2,1,5,5,1,30,50,16,5,14,4,0,0,-17.929558,7.474352,1,0,0,0,0,Hover,,lost,71.42857,0,0,1,1,1,1,0,0,0,0,0,0,2,0,0,0,0,100,100,100,701,391,1303,1530,-32.95219831,378,431,1271,1394,-55.03407719,200,181,186,108,215,393,FALSE,FALSE,FALSE,FALSE,FALSE,FALSE,TRUE,FALSE,FALSE,FALSE,38,,,,,,,0.031999998,0,0,0.031999998,0,0.031999998,0.002,0,0.9999125,0.002,0,0.002,,1000000,0,0.35968956,0,,Joystick,OTHER,NONE,ALREADY,FALSE,Connected,,P,TRUE,FALSE,FALSE,97700,5,4.5,4.4,0.123,0.20425138,0.57818156,-0.04922657,40.79741,0.20425138,0.57818156,-0.04922657,40.79741,41.3999,0,1,1,0,2,61.46,61.75,61.06,60.92,0.9997418,-0.007696996,-0.021381047,3.65E-04,0.880923877,2.450812587,-0.060655878,104.52659,0.010015732,-0.011933122,0,0,1,0,0,0,0,2,0,,,
704538690,101.705,113.9589748,22.54265163,104.52615,104.52615,4.426155564,,15,-1.175907918,-3.33311267,0.008470825,0.008353252,0.002786998,-1.0127099,1.0127481,-7.3488812,-17.779282,1.0514212,19.266924,-0.612111,0.19607563,0.009320449,0.64281595,0.642748384,1497,0,-87,1499,0.55,0.008470825,3.533577734,-19.40638991,-19.41486074,0.008470825,0.068219449,0.059748624,-18.71240868,7.797336517,-4.612342153,4.612342153,-0.614652356,0.186247898,0.007603698,-0.002541384,-0.009827735,-0.001716751,22.54264472,113.9589779,FALSE,FALSE,1.887146004,-9.391836982,1.366091986,,20.10448177,162.2330406,162.2330406,0.99952435,-0.010255062,-0.02908202,3.72E-04,0.57310605,-0.20175052,-0.014440686,0,0,0,55,55,4096,0,43230,0,0,,,,,99.99,99.99,3.75E+07,0,0,0,,,,20151018,223,7165,0,0,0,0,Joystick,2,1,5,5,1,30,50,16,5,14,4,0,0,-17.957855,7.483443,1,0,0,0,0,Hover,,lost,71.42857,0,0,0,1,1,1,0,0,0,0,0,0,2,0,0,0,0,100,100,100,704,394,1297,1527,-33.81265681,378,431,1271,1394,-56.36800687,201,182,184,108,215,393,FALSE,FALSE,FALSE,FALSE,FALSE,FALSE,TRUE,FALSE,FALSE,FALSE,38,,,,,,,0.031999998,0,0,0.031999998,0,0.031999998,0.002,0,0.9999125,0.002,0,0.002,,1000000,0,0.35968956,0,,Joystick,OTHER,NONE,ALREADY,FALSE,Connected,,P,TRUE,FALSE,FALSE,97700,5,4.5,4.4,0.123,0.18414374,0.48034742,-0.045833625,40.83927,0.18414374,0.48034742,-0.045833625,40.83927,41.354973,0,1,1,0,2,61.45,61.71,61.14,61.01,0.99954945,-0.00999683,-0.028298542,3.72E-04,1.143906498,3.244118315,-0.075018514,104.5262,0.009403288,-0.014119923,0,0,1,0,0,0,0,2,0,,,
704690520,101.738,113.9589749,22.54265144,104.52584,104.52584,4.425842759,,15,-1.362184451,-3.905519939,-0.003534622,0.006701851,-0.007676493,-0.9981353,0.9981873,-6.00673,-13.475829,0.8830971,14.780347,-0.590146,0.18839063,0.008704264,0.6195475,0.61948633,1496,0,-102,1499,0.55,-0.003534622,4.134871945,-19.20725608,-19.20372146,359.9964654,0.092652395,0.096187017,-18.73433156,7.804347217,-4.612013434,4.612013434,-0.614652356,0.186247898,0.007603698,-0.024506351,-0.00214273,-0.001100565,22.54264452,113.958978,FALSE,FALSE,1.904569034,-9.580496674,0.780911455,,20.12655822,162.3019033,162.3019033,0.99934876,-0.011881171,-0.034072716,3.74E-04,0.67237365,-0.23411451,-0.016618453,0,0,0,55,55,4096,0,43244,0,0,,,,,99.99,99.99,3.75E+07,0,0,0,,,,20151018,223,7167,0,0,0,0,Joystick,2,1,5,5,1,30,50,16,5,14,4,0,0,-17.97912,7.490249,1,0,0,0,0,Hover,,lost,71.42857,0,0,0,1,1,1,0,0,0,0,0,0,2,0,0,0,0,100,100,100,707,394,1288,1521,-34.47268707,378,431,1271,1394,-57.71917251,202,182,180,108,215,393,FALSE,FALSE,FALSE,FALSE,FALSE,FALSE,TRUE,FALSE,FALSE,FALSE,38,,,,,,,0.031999998,0,0,0.031999998,0,0.031999998,0.002,0,0.9994739,0.002,0,0.002,,1000000,0,0.35968956,0,,Joystick,OTHER,NONE,ALREADY,FALSE,Connected,,P,TRUE,FALSE,FALSE,97700,5,4.5,4.4,0.123,0.18050492,0.5061589,-0.04237679,40.87223,0.18050492,0.5061589,-0.04237679,40.87223,41.40015,0,1,1,0,2,61.49,61.75,61.15,61.02,0.99934876,-0.011881171,-0.034072716,3.74E-04,1.3592613,3.906535348,-0.089270268,104.52584,0.008704264,-0.016618453,0,0,1,0,0,0,0,2,0,,,
704843461,101.772,113.9589749,22.54265128,104.52559,104.52559,4.425590989,,15,-1.494009254,-4.320888085,-0.013480135,-0.003150305,0.00782956,-1.013591,1.0136262,-3.303678,-13.328381,-1.0392436,13.770986,-0.5687749,0.18098393,0.008125421,0.59693056,0.596875248,1495,0,-113,1499,0.55,-0.013480135,4.570039803,-19.05748366,-19.04400352,359.9865199,0.112591224,0.126071359,-18.75240154,7.810106547,-4.611750981,4.611750981,-0.614652356,0.186247898,0.007603698,-0.045877477,0.005263967,-5.22E-04,22.54264436,113.958978,FALSE,FALSE,1.897919938,-9.727932561,0.347642789,,20.14478909,162.3411814,162.3411814,0.9992043,-0.013032488,-0.03769319,3.74E-04,0.74451923,-0.2570744,-0.017983053,0,0,0,55,55,4096,0,43256,0,0,,,,,99.99,99.99,3.75E+07,0,0,0,,,,20151018,223,7168,0,0,0,0,Joystick,2,1,5,5,1,30,50,16,5,14,4,0,0,-17.990923,7.494016,1,0,0,0,0,Hover,,lost,71.42857,0,0,1,1,1,1,0,0,0,0,0,0,2,0,0,0,0,100,100,100,711,394,1288,1523,-34.89939196,378,431,1271,1394,-58.70599377,203,182,183,108,215,393,FALSE,FALSE,FALSE,FALSE,FALSE,FALSE,TRUE,FALSE,FALSE,FALSE,38,,,,,,,0.031999998,0,0,0.031999998,0,0.031999998,0.002,0,0.9994739,0.002,0,0.002,,1000000,0,0.35968956,0,,Joystick,OTHER,NONE,ALREADY,FALSE,Connected,,P,TRUE,FALSE,FALSE,97800,5,4.5,4.4,0.123,0.17720215,0.5052349,-0.037915166,40.906185,0.17720215,0.5052349,-0.037915166,40.906185,41.426655,0,1,1,0,2,61.52,61.77,61.18,61.05,0.99925125,-0.012673144,-0.03655407,3.74E-04,1.449735167,4.191272164,-0.095965624,104.525665,0.008323465,-0.017544854,0,0,1,0,0,0,0,2,0,,,
704993906,101.806,113.958975,22.54265111,104.525314,104.525314,4.425316331,,15,-1.616215802,-4.716860677,-0.023932685,-0.003688489,0.002296661,-1.000314,1.0003234,-4.4175305,-10.64824,1.0466983,11.575628,-0.5413784,0.1715694,0.007396143,0.5679624,0.567914258,1494,0,-123,1499,0.55,-0.023932685,4.983714445,-18.90271116,-18.87877847,359.9760673,0.132595804,0.156528489,-18.77267857,7.816545944,-4.611467429,4.611467429,-0.614652356,0.186247898,0.00964549,-0.073273977,0.014678491,0.002249347,22.54264417,113.9589781,FALSE,FALSE,1.910245965,-9.868603346,-0.068301953,,20.16515656,162.4196222,162.4196222,0.99905366,-0.014100323,-0.041143715,3.72E-04,0.8134412,-0.2784329,-0.019512542,0,0,0,55,55,4096,0,43270,0,0,,,,,99.99,99.99,3.75E+07,0,0,0,,,,20151018,223,7170,0,0,0,0,Joystick,2,1,5,5,1,30,50,16,5,14,4,0,0,-18.013668,7.5012536,1,0,0,0,0,Hover,,lost,71.42857,0,0,1,1,1,1,0,0,0,0,0,0,2,0,0,0,0,100,100,100,711,394,1300,1533,-35.54063723,378,431,1271,1394,-59.65054243,203,183,188,108,215,393,FALSE,FALSE,FALSE,FALSE,FALSE,FALSE,TRUE,FALSE,FALSE,FALSE,38,,,,,,,0.031999998,0,0,0.031999998,0,0.031999998,0.002,0,0.9994739,0.002,0,0.002,,1000000,0,0.35968956,0,,Joystick,OTHER,NONE,ALREADY,FALSE,Connected,,P,TRUE,FALSE,FALSE,97800,5,4.5,4.4,0.123,0.16321602,0.45314136,-0.033955887,40.930378,0.16321602,0.45314136,-0.033955887,40.930378,41.400166,0,1,1,0,2,61.52,61.75,61.22,61.1,0.9990737,-0.013965677,-0.04070128,3.72E-04,1.597337463,4.6672701,-0.107782668,104.52535,0.007503048,-0.019304961,0,0,1,0,0,0,0,2,0,,,
705144295,101.839,113.958975,22.54265096,104.5251,104.5251,4.425102708,,15,-1.694856976,-4.982808723,-0.031451646,-0.009189568,0.001478821,-1.0030456,1.0030887,-2.7597406,-8.562691,-1.1298454,9.067104,-0.5161946,0.1629826,0.00674038,0.5413553,0.541313365,1494,0,-130,1499,0.55,-0.031451646,5.260425216,-18.77773591,-18.74628426,359.9685484,0.146901086,0.178352732,-18.78919872,7.821771856,-4.611246601,4.611246601,-0.614652356,0.186247898,0.00964549,-0.098457774,0.0232653,0.00290511,22.54264402,113.9589782,FALSE,FALSE,1.892339064,-9.948626332,-0.344156243,,20.18178009,162.4804705,162.4804705,0.9989456,-0.014787827,-0.043460697,3.69E-04,0.8597999,-0.2922244,-0.020552337,0,0,0,55,55,4096,0,43282,0,0,,,,,99.99,99.99,3.75E+07,0,0,0,,,,20151018,223,7172,0,0,0,0,Joystick,2,1,5,5,1,30,50,16,5,14,4,0,0,-18.035154,7.508059,1,0,0,0,0,Hover,,lost,71.42857,0,0,0,1,1,1,0,0,0,0,0,0,2,0,0,0,0,100,100,100,711,398,1310,1542,-36.24106026,378,431,1271,1394,-60.28528529,203,183,188,108,215,393,FALSE,FALSE,FALSE,FALSE,FALSE,FALSE,TRUE,FALSE,FALSE,FALSE,38,,,,,,,0.031999998,0,0,0.031999998,0,0.031999998,0.002,0,0.9990152,0.002,0,0.002,,1000000,0,0.35968956,0,,Joystick,OTHER,NONE,ALREADY,FALSE,Connected,,P,TRUE,FALSE,FALSE,97800,5,4.5,4.4,0.123,0.14832789,0.43600994,-0.029281726,40.951305,0.14832789,0.43600994,-0.029281726,40.951305,41.393776,0,1,1,0,2,61.54,61.74,61.24,61.13,0.998997,-0.014469597,-0.04237396,3.70E-04,1.654862402,4.859289077,-0.112700261,104.52521,0.007070627,-0.020076089,0,0,1,0,0,0,0,2,0,,,
705297952,101.873,113.9589751,22.54265081,104.52488,104.52488,4.424881456,,15,-1.758532671,-5.21314801,-0.038258534,0.007208244,0.001096185,-1.0048395,1.004866,-2.6232142,-4.8508744,-1.2674459,5.6585026,-0.4853068,0.1525304,0.00594946,0.5087471,0.508712294,1493,1,-136,1499,0.55,-0.038258534,5.498669515,-18.63638289,-18.59812435,359.9617415,0.121302328,0.159560862,-18.8074876,7.827533436,-4.611014839,4.611014839,-0.614652356,0.182802976,0.00964549,-0.129345557,0.030272574,0.00369603,22.54264386,113.9589782,FALSE,FALSE,1.891042526,-9.990982124,-0.571005605,,20.20013765,162.5516492,162.5516492,0.998848,-0.015344796,-0.045467127,3.64E-04,0.9000023,-0.30342925,-0.021413594,0,0,0,55,55,4096,0,43296,0,0,,,,,99.99,99.99,3.75E+07,0,0,0,,,,20151018,223,7173,0,0,0,0,Joystick,2,1,5,5,1,30,50,16,5,14,4,0,0,-18.045391,7.511289,1,0,0,0,0,Hover,,lost,71.42857,0,0,0,1,1,1,0,0,0,0,0,0,2,0,0,0,0,100,100,100,704,394,1303,1532,-36.6123061,378,431,1271,1394,-60.83296472,201,182,186,108,215,393,FALSE,FALSE,FALSE,FALSE,FALSE,FALSE,TRUE,FALSE,FALSE,FALSE,38,,,,,,,0.031999998,0,0,0.031999998,0,0.031999998,0.002,0,0.9990152,0.002,0,0.002,,1000000,0,0.35968956,0,,Joystick,OTHER,NONE,ALREADY,FALSE,Connected,,P,TRUE,FALSE,FALSE,97800,5,4.5,4.4,0.123,0.12819548,0.3697472,-0.025400069,40.96303,0.12819548,0.3697472,-0.025400069,40.96303,41.34053,0,1,1,0,2,61.53,61.7,61.27,61.18,0.9988727,-0.015211009,-0.044966754,3.66E-04,1.739470776,5.156970426,-0.120295096,104.52494,0.006177995,-0.02119591,0,0,1,0,0,0,0,2,0,,,
705452709,101.908,113.9589751,22.54265068,104.52471,104.52471,4.424713609,,15,-1.791441782,-5.347831209,-0.042347085,0.002757348,0.007251092,-0.9995013,0.9995314,-0.29837227,-4.0607476,-1.5140617,4.3440857,-0.457901,0.1433249,0.00526005,0.47983646,0.479807624,1493,1,-139,1499,0.55,-0.042347085,5.63661762,-18.51786563,-18.47551855,359.9576529,0.127847788,0.170194872,-18.822247,7.832162852,-4.610839463,4.610839463,-0.614652356,0.182802976,0.00964549,-0.156751355,0.039478079,0.00438544,22.54264373,113.9589783,FALSE,FALSE,1.914649985,-10.04968503,-0.682665391,,20.21495729,162.6216532,162.6216532,0.99878937,-0.015632858,-0.046640217,3.60E-04,0.9235318,-0.30924892,-0.02174528,0,0,0,55,55,4096,0,43308,0,0,,,,,99.99,99.99,3.75E+07,0,0,0,,,,20151018,223,7175,0,0,0,0,Joystick,2,1,5,5,1,30,50,16,5,14,4,0,0,-18.06713,7.51812,1,0,0,0,0,Hover,,lost,71.42857,0,0,1,1,1,1,0,0,0,0,0,0,2,0,0,0,0,100,100,100,704,398,1303,1533,-37.05915605,378,431,1271,1394,-61.14982682,201,183,184,108,215,393,FALSE,FALSE,FALSE,FALSE,FALSE,FALSE,TRUE,FALSE,FALSE,FALSE,38,,,,,,,0.031999998,0,0,0.031999998,0,0.031999998,0.002,0,0.9990152,0.002,0,0.002,,1000000,0,0.36299646,0,,Joystick,OTHER,NONE,ALREADY,FALSE,Connected,,P,TRUE,FALSE,FALSE,97900,5,4.5,4.4,0.123,0.12525675,0.39096233,-0.021038087,40.969765,0.12525675,0.39096233,-0.021038087,40.969765,41.355824,0,1,1,0,2,61.55,61.71,61.27,61.17,0.99878937,-0.015632858,-0.046640217,3.60E-04,1.787589793,5.349116359,-0.124836437,104.52471,0.00526005,-0.02174528,0,0,1,0,0,0,0,2,0,,,
705603151,101.941,113.9589752,22.54265054,104.52454,104.52454,4.424545762,,15,-1.806740468,-5.436043297,-0.04506681,0.007811185,-0.007403165,-1.0059601,1.0060177,1.0317051,0.2037803,1.361866,1.7206454,-0.4252506,0.13243736,0.004453547,0.4454184,0.445396131,1493,1,-142,1499,0.55,-0.04506681,5.725022948,-18.38414322,-18.33907641,359.9549332,0.132854883,0.177921693,-18.83830466,7.837176597,-4.61066288,4.61066288,-0.614652356,0.182802976,0.00964549,-0.189401766,0.050365613,0.005191943,22.54264358,113.9589783,FALSE,FALSE,1.898003759,-10.07596344,-0.76506218,,20.23113207,162.7071154,162.7071154,0.9987511,-0.015767042,-0.047408544,3.55E-04,0.93902093,-0.3120101,-0.021809563,0,0,0,55,55,4096,0,43322,0,0,,,,,99.99,99.99,3.75E+07,0,0,0,,,,20151018,223,7176,0,0,0,0,Joystick,2,1,5,5,1,30,50,16,5,14,4,0,0,-18.073967,7.5202575,1,0,0,0,0,Hover,,lost,71.42857,0,0,0,1,1,1,0,0,0,0,0,0,2,0,0,0,0,100,100,100,704,394,1282,1514,-36.79134747,378,431,1271,1394,-61.35131692,202,182,179,108,215,393,FALSE,FALSE,FALSE,FALSE,FALSE,FALSE,TRUE,FALSE,FALSE,FALSE,38,,,,,,,0.031999998,0,0,0.031999998,0,0.031999998,0.002,0,0.99876875,0.002,0,0.002,,1000000,0,0.36299646,0,,Joystick,OTHER,NONE,ALREADY,FALSE,Connected,,P,TRUE,FALSE,FALSE,97900,5,4.5,4.4,0.123,0.110726036,0.3367514,-0.01756191,40.96975,0.110726036,0.3367514,-0.01756191,40.96975,41.303726,0,1,1,0,2,61.53,61.67,61.29,61.2,0.99876344,-0.015735291,-0.04715755,3.57E-04,1.799267374,5.408510451,-0.125974359,104.52461,0.004798655,-0.021804295,0,0,1,0,0,0,0,2,0,,,
705757335,101.975,113.9589752,22.54265043,104.52442,104.52442,4.424423692,,15,-1.801558438,-5.455667266,-0.045686807,0.001800899,9.24E-04,-1.01427,1.014272,0.027102323,-0.519958,-1.5154386,1.6023873,-0.39700162,0.12308361,0.003769122,0.415661,0.415643911,1493,1,-142,1499,0.55,-0.045686807,5.742026828,-18.27383462,-18.22814781,359.9543132,0.132364376,0.178051183,-18.85115345,7.841169325,-4.610534406,4.610534406,-0.614652356,0.182802976,0.00964549,-0.217650732,0.05971937,0.005876368,22.54264347,113.9589784,FALSE,FALSE,1.908022301,-10.07754536,-0.790632658,,20.24403421,162.7800686,162.7800686,0.9987437,-0.015722074,-0.047579546,3.50E-04,0.94255763,-0.31118363,-0.021658823,0,0,0,55,55,4096,0,43334,0,0,,,,,99.99,99.99,3.75E+07,0,0,0,,,,20151018,223,7178,0,0,0,0,Joystick,2,1,5,5,1,30,50,16,5,14,4,0,0,-18.091164,7.525617,1,0,0,0,0,Hover,,lost,71.42857,0,0,0,1,1,1,0,0,0,0,0,0,2,0,0,0,0,100,100,100,707,391,1279,1512,-36.45583416,378,431,1271,1394,-61.38720602,202,181,178,108,215,393,FALSE,FALSE,FALSE,FALSE,FALSE,FALSE,TRUE,FALSE,FALSE,FALSE,38,,,,,,,0.031999998,0,0,0.031999998,0,0.031999998,0.002,0,0.99876875,0.002,0,0.002,,1000000,0,0.36299646,0,,Joystick,OTHER,NONE,ALREADY,FALSE,Connected,,P,TRUE,FALSE,FALSE,97900,5,4.5,4.4,0.123,0.09447083,0.29947856,-0.013849579,40.96327,0.09447083,0.29947856,-0.013849579,40.96327,41.255684,0,1,1,0,2,61.52,61.64,61.3,61.22,0.99874336,-0.015739124,-0.047580194,3.51E-04,1.799687523,5.45700381,-0.12602596,104.52444,0.003882427,-0.021703199,0,0,1,0,0,0,0,2,0,,,
705909091,102.009,113.9589753,22.54265031,104.5243,104.5243,4.424301622,,15,-1.776783519,-5.420746495,-0.044599237,-0.003721091,0.008385825,-1.0140418,1.0140833,0.6964222,0.622492,-0.11327558,0.9409206,-0.3640958,0.11226274,0.002994839,0.38102186,0.381010075,1493,1,-141,1499,0.55,-0.044599237,5.701223975,-18.14721597,-18.10261673,359.9554008,0.128842795,0.173442032,-18.86504809,7.845465569,-4.610411081,4.610411081,-0.478591589,0.182802976,0.00964549,-0.114495782,0.070540235,0.006650651,22.54264334,113.9589784,FALSE,FALSE,1.889369664,-10.06671083,-0.744668535,,20.25795997,162.8532864,162.8532864,0.9987615,-0.015505796,-0.04727558,3.44E-04,0.93637484,-0.30681926,-0.018024899,0,0,0,55,55,4096,0,43348,0,0,,,,,99.99,99.99,3.75E+07,0,0,0,,,,20151018,223,7180,0,0,0,0,Joystick,2,1,5,5,1,30,50,16,5,14,4,0,0,-18.106853,7.530479,1,0,0,0,0,Hover,,lost,71.42857,0,0,0,1,1,1,0,0,0,0,0,0,2,0,0,0,0,100,100,100,711,391,1285,1519,-36.23637361,378,431,1271,1394,-61.28760151,203,181,182,108,215,393,FALSE,FALSE,FALSE,FALSE,FALSE,FALSE,TRUE,FALSE,FALSE,FALSE,38,,,,,,,0.031999998,0,0,0.031999998,0,0.031999998,0.002,0,0.99876875,0.002,0,0.002,,1000000,0,0.36299646,0,,Joystick,OTHER,NONE,ALREADY,FALSE,Connected,,P,TRUE,FALSE,FALSE,98000,5,4.5,4.4,0.123,2.6035635,11.206574,-0.00492149,40.95295,2.6035635,11.206574,-0.00492149,40.95295,50.723114,0,1,1,0,2,65.94,68.69,56.31,53.08,0.9987615,-0.015505796,-0.04727558,3.44E-04,1.773049611,5.421965551,-0.123483082,104.5243,0.002994839,-0.018024899,0,0,1,0,0,0,0,2,0,,,
706062031,102.043,113.9589753,22.54265022,104.524376,104.524376,4.424377916,,15,-1.662052068,-4.880547591,-0.078182598,-2.57E-04,-0.002212764,-1.0765373,1.0765395,10.053221,53.585068,-2.3139653,54.56905,-0.3353178,0.10277303,-0.012804052,0.35094765,0.350714009,1494,2,-127,1499,0.55,-0.078182598,5.153206871,-18.84684197,-18.76865937,359.9218174,0.064364654,0.142547252,-18.87594601,7.848816896,-4.610484644,4.610484644,-0.478591589,0.182802976,0.00964549,-0.143273799,0.080029943,0.022449542,22.54264324,113.9589784,FALSE,FALSE,1.816394576,-9.938731328,-0.124913293,,20.26892498,162.9450566,162.9450566,0.9989883,-0.014519523,-0.04256356,-6.40E-05,0.9208051,-0.31244573,-0.6930009,0,0,0,55,55,4096,0,43360,0,0,,,,,99.99,99.99,3.75E+07,0,0,0,,,,20151018,223,7181,0,0,0,0,Joystick,2,1,5,5,1,30,50,16,5,14,4,0,0,-18.114138,7.5327253,1,0,0,0,0,Hover,,lost,71.42857,0,0,0,1,1,1,0,0,0,0,0,0,2,0,0,0,0,100,100,100,707,388,1297,1527,-35.56243708,378,431,1271,1394,-60.03799676,202,180,185,108,215,393,FALSE,FALSE,FALSE,FALSE,FALSE,FALSE,TRUE,FALSE,FALSE,FALSE,38,,,,,,,0.031999998,0,0,0.031999998,0,0.031999998,0.002,0,0.9987994,0.002,0,0.002,,1000000,0,0.36299646,0,,Joystick,OTHER,NONE,ALREADY,FALSE,Connected,,P,TRUE,FALSE,FALSE,98000,5,4.5,4.4,0.123,0.42166698,-9.899378,1.5147334,39.824856,0.42166698,-9.899378,1.5147334,39.824856,48.63767,0,1,1,0,2,55.59,53.45,67.13,64.43,0.99883926,-0.015114308,-0.045733795,1.59E-04,1.729393086,5.24460576,-0.097412794,104.524284,-0.004498066,-0.79113406,0,0,1,0,0,0,0,2,0,,,
